[{"": "0", "Division Name": "Adelaide", "Latitude": "-34.905106", "Longitude": "138.596", "Conservative National Party": "0.0", "Labor Party": "0.0", "Greens Party": "12475.0", "Liberal Party": "26787.0", "United Australia Party": "2292"}, {"": "1", "Division Name": "Aston", "Latitude": "-37.87545", "Longitude": "145.255", "Conservative National Party": "0.0", "Labor Party": "0.0", "Greens Party": "0.0", "Liberal Party": "45506.0", "United Australia Party": "2933"}, {"": "2", "Division Name": "Ballarat", "Latitude": "-37.5580855", "Longitude": "143.86626024999998", "Conservative National Party": "0.0", "Labor Party": "0.0", "Greens Party": "0.0", "Liberal Party": "26475.0", "United Australia Party": "3783"}, {"": "3", "Division Name": "Banks", "Latitude": "-33.9641", "Longitude": "151.0710939", "Conservative National Party": "0.0", "Labor Party": "28162.0", "Greens Party": "4281.0", "Liberal Party": "39338.0", "United Australia Party": "1640"}, {"": "4", "Division Name": "Barker", "Latitude": "-35.1346", "Longitude": "140.226", "Conservative National Party": "0.0", "Labor Party": "0.0", "Greens Party": "5976.0", "Liberal Party": "51923.0", "United Australia Party": "5279"}, {"": "5", "Division Name": "Barton", "Latitude": "-33.940650000000005", "Longitude": "151.130222", "Conservative National Party": "0.0", "Labor Party": "37740.0", "Greens Party": "6340.0", "Liberal Party": "25507.0", "United Australia Party": "1649"}, {"": "6", "Division Name": "Bass", "Latitude": "-41.39065", "Longitude": "147.1369097", "Conservative National Party": "0.0", "Labor Party": "0.0", "Greens Party": "6124.0", "Liberal Party": "24847.0", "United Australia Party": "2860"}, {"": "7", "Division Name": "Bean", "Latitude": "-35.3784", "Longitude": "149.089", "Conservative National Party": "0.0", "Labor Party": "0.0", "Greens Party": "10707.0", "Liberal Party": "25962.0", "United Australia Party": "1948"}, {"": "8", "Division Name": "Bendigo", "Latitude": "-36.780371", "Longitude": "144.27862", "Conservative National Party": "1384.0", "Labor Party": "0.0", "Greens Party": "0.0", "Liberal Party": "26989.0", "United Australia Party": "3673"}, {"": "9", "Division Name": "Bennelong", "Latitude": "-33.8005415", "Longitude": "151.1", "Conservative National Party": "0.0", "Labor Party": "27885.0", "Greens Party": "7414.0", "Liberal Party": "39940.0", "United Australia Party": "1473"}, {"": "10", "Division Name": "Berowra", "Latitude": "-33.7138778", "Longitude": "151.0651663", "Conservative National Party": "0.0", "Labor Party": "16667.0", "Greens Party": "9167.0", "Liberal Party": "44301.0", "United Australia Party": "1246"}, {"": "11", "Division Name": "Blair", "Latitude": "-27.6083609", "Longitude": "152.751", "Conservative National Party": "1590.0", "Labor Party": "0.0", "Greens Party": "6711.0", "Liberal Party": "0.0", "United Australia Party": "2623"}, {"": "12", "Division Name": "Blaxland", "Latitude": "-33.885252449999996", "Longitude": "151.02", "Conservative National Party": "0.0", "Labor Party": "40578.0", "Greens Party": "3462.0", "Liberal Party": "18983.0", "United Australia Party": "1843"}, {"": "13", "Division Name": "Bonner", "Latitude": "-27.49199315", "Longitude": "153.11367990000002", "Conservative National Party": "839.0", "Labor Party": "0.0", "Greens Party": "8667.0", "Liberal Party": "0.0", "United Australia Party": "1831"}, {"": "14", "Division Name": "Boothby", "Latitude": "-34.99005", "Longitude": "138.5620515", "Conservative National Party": "657.0", "Labor Party": "0.0", "Greens Party": "10667.0", "Liberal Party": "39437.0", "United Australia Party": "1599"}, {"": "15", "Division Name": "Bowman", "Latitude": "-27.534799999999997", "Longitude": "153.2465", "Conservative National Party": "1452.0", "Labor Party": "0.0", "Greens Party": "9752.0", "Liberal Party": "0.0", "United Australia Party": "2843"}, {"": "16", "Division Name": "Braddon", "Latitude": "-41.15507", "Longitude": "145.906", "Conservative National Party": "598.0", "Labor Party": "0.0", "Greens Party": "2800.0", "Liberal Party": "23235.0", "United Australia Party": "2228"}, {"": "17", "Division Name": "Bradfield", "Latitude": "-33.7403", "Longitude": "151.15251", "Conservative National Party": "0.0", "Labor Party": "16982.0", "Greens Party": "10820.0", "Liberal Party": "47579.0", "United Australia Party": "1456"}, {"": "18", "Division Name": "Brand", "Latitude": "-32.299", "Longitude": "115.766", "Conservative National Party": "1105.0", "Labor Party": "0.0", "Greens Party": "0.0", "Liberal Party": "21519.0", "United Australia Party": "1941"}, {"": "19", "Division Name": "Brisbane", "Latitude": "-27.446", "Longitude": "153.0280495", "Conservative National Party": "524.0", "Labor Party": "0.0", "Greens Party": "17228.0", "Liberal Party": "0.0", "United Australia Party": "968"}, {"": "20", "Division Name": "Bruce", "Latitude": "-37.9718032", "Longitude": "145.20594", "Conservative National Party": "2579.0", "Labor Party": "0.0", "Greens Party": "0.0", "Liberal Party": "20933.0", "United Australia Party": "3093"}, {"": "21", "Division Name": "Burt", "Latitude": "-32.1101", "Longitude": "115.9557566", "Conservative National Party": "0.0", "Labor Party": "0.0", "Greens Party": "0.0", "Liberal Party": "23355.0", "United Australia Party": "1417"}, {"": "22", "Division Name": "Calare", "Latitude": "-33.3062", "Longitude": "149.462", "Conservative National Party": "0.0", "Labor Party": "20843.0", "Greens Party": "5421.0", "Liberal Party": "0.0", "United Australia Party": "3000"}, {"": "23", "Division Name": "Calwell", "Latitude": "-37.6405", "Longitude": "144.9212178", "Conservative National Party": "1388.0", "Labor Party": "0.0", "Greens Party": "0.0", "Liberal Party": "17270.0", "United Australia Party": "2326"}, {"": "24", "Division Name": "Canberra", "Latitude": "-35.270926", "Longitude": "149.125", "Conservative National Party": "0.0", "Labor Party": "0.0", "Greens Party": "17417.0", "Liberal Party": "20427.0", "United Australia Party": "1119"}, {"": "25", "Division Name": "Canning", "Latitude": "-32.5284", "Longitude": "115.855174", "Conservative National Party": "1169.0", "Labor Party": "0.0", "Greens Party": "0.0", "Liberal Party": "36484.0", "United Australia Party": "1584"}, {"": "26", "Division Name": "Capricornia", "Latitude": "-23.1179196", "Longitude": "150.488", "Conservative National Party": "1602.0", "Labor Party": "0.0", "Greens Party": "3664.0", "Liberal Party": "0.0", "United Australia Party": "2738"}, {"": "27", "Division Name": "Casey", "Latitude": "-37.7965", "Longitude": "145.362", "Conservative National Party": "0.0", "Labor Party": "0.0", "Greens Party": "0.0", "Liberal Party": "35893.0", "United Australia Party": "1938"}, {"": "28", "Division Name": "Chifley", "Latitude": "-33.7520875", "Longitude": "150.84050000000002", "Conservative National Party": "0.0", "Labor Party": "43158.0", "Greens Party": "3751.0", "Liberal Party": "21052.0", "United Australia Party": "3322"}, {"": "29", "Division Name": "Chisholm", "Latitude": "-37.8433", "Longitude": "145.14249999999998", "Conservative National Party": "0.0", "Labor Party": "0.0", "Greens Party": "0.0", "Liberal Party": "31098.0", "United Australia Party": "1109"}, {"": "30", "Division Name": "Clark", "Latitude": "-42.87810785", "Longitude": "147.30866650000002", "Conservative National Party": "0.0", "Labor Party": "0.0", "Greens Party": "5432.0", "Liberal Party": "9417.0", "United Australia Party": "1511"}, {"": "31", "Division Name": "Cook", "Latitude": "-34.033114999999995", "Longitude": "151.11999355", "Conservative National Party": "450.0", "Labor Party": "18402.0", "Greens Party": "5214.0", "Liberal Party": "51019.0", "United Australia Party": "923"}, {"": "32", "Division Name": "Cooper", "Latitude": "-37.7448", "Longitude": "145.003427", "Conservative National Party": "0.0", "Labor Party": "0.0", "Greens Party": "0.0", "Liberal Party": "14456.0", "United Australia Party": "1374"}, {"": "33", "Division Name": "Corangamite", "Latitude": "-38.257841049999996", "Longitude": "144.32281465", "Conservative National Party": "0.0", "Labor Party": "0.0", "Greens Party": "0.0", "Liberal Party": "33970.0", "United Australia Party": "1704"}, {"": "34", "Division Name": "Corio", "Latitude": "-38.140008", "Longitude": "144.345", "Conservative National Party": "0.0", "Labor Party": "0.0", "Greens Party": "0.0", "Liberal Party": "27276.0", "United Australia Party": "4209"}, {"": "35", "Division Name": "Cowan", "Latitude": "-31.82835645", "Longitude": "115.84047939999999", "Conservative National Party": "0.0", "Labor Party": "0.0", "Greens Party": "0.0", "Liberal Party": "26643.0", "United Australia Party": "1578"}, {"": "36", "Division Name": "Cowper", "Latitude": "-30.76074335", "Longitude": "152.91449999999998", "Conservative National Party": "0.0", "Labor Party": "12754.0", "Greens Party": "5279.0", "Liberal Party": "0.0", "United Australia Party": "2736"}, {"": "37", "Division Name": "Cunningham", "Latitude": "-34.4147", "Longitude": "150.8977103", "Conservative National Party": "0.0", "Labor Party": "41468.0", "Greens Party": "13255.0", "Liberal Party": "27140.0", "United Australia Party": "3285"}, {"": "38", "Division Name": "Curtin", "Latitude": "-31.9475305", "Longitude": "115.793", "Conservative National Party": "0.0", "Labor Party": "0.0", "Greens Party": "0.0", "Liberal Party": "37868.0", "United Australia Party": "786"}, {"": "39", "Division Name": "Dawson", "Latitude": "-20.40215735", "Longitude": "148.64824095", "Conservative National Party": "1495.0", "Labor Party": "0.0", "Greens Party": "3283.0", "Liberal Party": "0.0", "United Australia Party": "3736"}, {"": "40", "Division Name": "Deakin", "Latitude": "-37.812036", "Longitude": "145.244692", "Conservative National Party": "0.0", "Labor Party": "0.0", "Greens Party": "0.0", "Liberal Party": "35181.0", "United Australia Party": "1404"}, {"": "41", "Division Name": "Dickson", "Latitude": "-27.33556", "Longitude": "152.973", "Conservative National Party": "838.0", "Labor Party": "0.0", "Greens Party": "7724.0", "Liberal Party": "0.0", "United Australia Party": "1686"}, {"": "42", "Division Name": "Dobell", "Latitude": "-33.3255", "Longitude": "151.449", "Conservative National Party": "0.0", "Labor Party": "35027.0", "Greens Party": "5983.0", "Liberal Party": "33753.0", "United Australia Party": "4339"}, {"": "43", "Division Name": "Dunkley", "Latitude": "-38.1459", "Longitude": "145.148", "Conservative National Party": "1040.0", "Labor Party": "0.0", "Greens Party": "0.0", "Liberal Party": "30405.0", "United Australia Party": "1895"}, {"": "44", "Division Name": "Durack", "Latitude": "-28.7730164", "Longitude": "116.40554835", "Conservative National Party": "0.0", "Labor Party": "0.0", "Greens Party": "0.0", "Liberal Party": "26821.0", "United Australia Party": "1607"}, {"": "45", "Division Name": "Eden-Monaro", "Latitude": "-35.9539528", "Longitude": "149.2338288", "Conservative National Party": "0.0", "Labor Party": "33907.0", "Greens Party": "7176.0", "Liberal Party": "31334.0", "United Australia Party": "2301"}, {"": "46", "Division Name": "Fadden", "Latitude": "-27.913507250000002", "Longitude": "153.36384520000001", "Conservative National Party": "1188.0", "Labor Party": "0.0", "Greens Party": "6858.0", "Liberal Party": "0.0", "United Australia Party": "3965"}, {"": "47", "Division Name": "Fairfax", "Latitude": "-26.64030555", "Longitude": "153.05868735", "Conservative National Party": "1240.0", "Labor Party": "0.0", "Greens Party": "10157.0", "Liberal Party": "0.0", "United Australia Party": "2428"}, {"": "48", "Division Name": "Farrer", "Latitude": "-35.491726", "Longitude": "146.1754099", "Conservative National Party": "0.0", "Labor Party": "12354.0", "Greens Party": "3808.0", "Liberal Party": "42664.0", "United Australia Party": "3534"}, {"": "49", "Division Name": "Fenner", "Latitude": "-35.213499999999996", "Longitude": "149.08420375", "Conservative National Party": "0.0", "Labor Party": "0.0", "Greens Party": "9731.0", "Liberal Party": "21618.0", "United Australia Party": "2543"}, {"": "50", "Division Name": "Fisher", "Latitude": "-26.745299", "Longitude": "153.0884704", "Conservative National Party": "1283.0", "Labor Party": "0.0", "Greens Party": "9902.0", "Liberal Party": "0.0", "United Australia Party": "2728"}, {"": "51", "Division Name": "Flinders", "Latitude": "-38.3186", "Longitude": "145.04055", "Conservative National Party": "0.0", "Labor Party": "0.0", "Greens Party": "0.0", "Liberal Party": "36757.0", "United Australia Party": "1881"}, {"": "52", "Division Name": "Flynn", "Latitude": "-24.15060065", "Longitude": "151.2112367", "Conservative National Party": "2068.0", "Labor Party": "0.0", "Greens Party": "2143.0", "Liberal Party": "0.0", "United Australia Party": "3006"}, {"": "53", "Division Name": "Forde", "Latitude": "-27.701952", "Longitude": "153.18693615", "Conservative National Party": "1698.0", "Labor Party": "0.0", "Greens Party": "6008.0", "Liberal Party": "0.0", "United Australia Party": "2763"}, {"": "54", "Division Name": "Forrest", "Latitude": "-33.401399", "Longitude": "115.641985", "Conservative National Party": "0.0", "Labor Party": "0.0", "Greens Party": "0.0", "Liberal Party": "40029.0", "United Australia Party": "1316"}, {"": "55", "Division Name": "Fowler", "Latitude": "-33.887", "Longitude": "150.92223339999998", "Conservative National Party": "0.0", "Labor Party": "40030.0", "Greens Party": "3660.0", "Liberal Party": "20971.0", "United Australia Party": "3017"}, {"": "56", "Division Name": "Franklin", "Latitude": "-42.976944", "Longitude": "147.3235074", "Conservative National Party": "1028.0", "Labor Party": "0.0", "Greens Party": "9649.0", "Liberal Party": "18313.0", "United Australia Party": "3948"}, {"": "57", "Division Name": "Fraser", "Latitude": "-37.755", "Longitude": "144.811", "Conservative National Party": "0.0", "Labor Party": "0.0", "Greens Party": "0.0", "Liberal Party": "19364.0", "United Australia Party": "6197"}, {"": "58", "Division Name": "Fremantle", "Latitude": "-32.0932957", "Longitude": "115.79551695", "Conservative National Party": "0.0", "Labor Party": "0.0", "Greens Party": "0.0", "Liberal Party": "25167.0", "United Australia Party": "1368"}, {"": "59", "Division Name": "Gellibrand", "Latitude": "-37.856", "Longitude": "144.8611468", "Conservative National Party": "0.0", "Labor Party": "0.0", "Greens Party": "0.0", "Liberal Party": "23133.0", "United Australia Party": "4347"}, {"": "60", "Division Name": "Gilmore", "Latitude": "-35.02505", "Longitude": "150.596376", "Conservative National Party": "0.0", "Labor Party": "34404.0", "Greens Party": "8960.0", "Liberal Party": "26724.0", "United Australia Party": "3081"}, {"": "61", "Division Name": "Gippsland", "Latitude": "-38.053706", "Longitude": "147.0672346", "Conservative National Party": "1792.0", "Labor Party": "0.0", "Greens Party": "0.0", "Liberal Party": "0.0", "United Australia Party": "3749"}, {"": "62", "Division Name": "Goldstein", "Latitude": "-37.9213335", "Longitude": "145.0205", "Conservative National Party": "0.0", "Labor Party": "0.0", "Greens Party": "0.0", "Liberal Party": "41312.0", "United Australia Party": "1461"}, {"": "63", "Division Name": "Gorton", "Latitude": "-37.71801", "Longitude": "144.73961500000001", "Conservative National Party": "0.0", "Labor Party": "0.0", "Greens Party": "0.0", "Liberal Party": "18380.0", "United Australia Party": "5402"}, {"": "64", "Division Name": "Grayndler", "Latitude": "-33.8877", "Longitude": "151.16226", "Conservative National Party": "0.0", "Labor Party": "41753.0", "Greens Party": "17714.0", "Liberal Party": "17268.0", "United Australia Party": "936"}, {"": "65", "Division Name": "Greenway", "Latitude": "-33.752158", "Longitude": "150.922", "Conservative National Party": "0.0", "Labor Party": "38130.0", "Greens Party": "4132.0", "Liberal Party": "32711.0", "United Australia Party": "2302"}, {"": "66", "Division Name": "Grey", "Latitude": "-33.7529538", "Longitude": "137.80944499999998", "Conservative National Party": "0.0", "Labor Party": "0.0", "Greens Party": "3694.0", "Liberal Party": "42141.0", "United Australia Party": "3151"}, {"": "67", "Division Name": "Griffith", "Latitude": "-27.486330000000002", "Longitude": "153.0623695", "Conservative National Party": "647.0", "Labor Party": "0.0", "Greens Party": "19055.0", "Liberal Party": "0.0", "United Australia Party": "1043"}, {"": "68", "Division Name": "Groom", "Latitude": "-27.5581423", "Longitude": "151.933031", "Conservative National Party": "2379.0", "Labor Party": "0.0", "Greens Party": "6297.0", "Liberal Party": "0.0", "United Australia Party": "3010"}, {"": "69", "Division Name": "Hasluck", "Latitude": "-31.9026", "Longitude": "116.0380859", "Conservative National Party": "0.0", "Labor Party": "0.0", "Greens Party": "0.0", "Liberal Party": "28761.0", "United Australia Party": "1419"}, {"": "70", "Division Name": "Herbert", "Latitude": "-19.28335", "Longitude": "146.7595", "Conservative National Party": "1443.0", "Labor Party": "0.0", "Greens Party": "5765.0", "Liberal Party": "0.0", "United Australia Party": "4484"}, {"": "71", "Division Name": "Higgins", "Latitude": "-37.855273", "Longitude": "145.039", "Conservative National Party": "0.0", "Labor Party": "0.0", "Greens Party": "0.0", "Liberal Party": "37104.0", "United Australia Party": "883"}, {"": "72", "Division Name": "Hindmarsh", "Latitude": "-34.89587", "Longitude": "138.5226904", "Conservative National Party": "1603.0", "Labor Party": "0.0", "Greens Party": "9493.0", "Liberal Party": "31042.0", "United Australia Party": "3680"}, {"": "73", "Division Name": "Hinkler", "Latitude": "-24.9698275", "Longitude": "152.3905034", "Conservative National Party": "1236.0", "Labor Party": "0.0", "Greens Party": "2794.0", "Liberal Party": "0.0", "United Australia Party": "3484"}, {"": "74", "Division Name": "Holt", "Latitude": "-38.0812341", "Longitude": "145.2847599", "Conservative National Party": "0.0", "Labor Party": "0.0", "Greens Party": "0.0", "Liberal Party": "26057.0", "United Australia Party": "4291"}, {"": "75", "Division Name": "Hotham", "Latitude": "-37.920958999999996", "Longitude": "145.1230425", "Conservative National Party": "0.0", "Labor Party": "0.0", "Greens Party": "0.0", "Liberal Party": "28452.0", "United Australia Party": "2610"}, {"": "76", "Division Name": "Hughes", "Latitude": "-34.01960605", "Longitude": "151.02795865", "Conservative National Party": "0.0", "Labor Party": "25418.0", "Greens Party": "5474.0", "Liberal Party": "43716.0", "United Australia Party": "1979"}, {"": "77", "Division Name": "Hume", "Latitude": "-34.27394395", "Longitude": "150.54500000000002", "Conservative National Party": "2069.0", "Labor Party": "23169.0", "Greens Party": "4101.0", "Liberal Party": "46498.0", "United Australia Party": "4093"}, {"": "78", "Division Name": "Hunter", "Latitude": "-32.909808", "Longitude": "151.4576268", "Conservative National Party": "0.0", "Labor Party": "33482.0", "Greens Party": "5759.0", "Liberal Party": "0.0", "United Australia Party": "3732"}, {"": "79", "Division Name": "Indi", "Latitude": "-36.50995", "Longitude": "146.4214751", "Conservative National Party": "0.0", "Labor Party": "0.0", "Greens Party": "0.0", "Liberal Party": "29749.0", "United Australia Party": "3191"}, {"": "80", "Division Name": "Isaacs", "Latitude": "-37.9890524", "Longitude": "145.107", "Conservative National Party": "0.0", "Labor Party": "0.0", "Greens Party": "0.0", "Liberal Party": "26888.0", "United Australia Party": "3029"}, {"": "81", "Division Name": "Jagajaga", "Latitude": "-37.71329", "Longitude": "145.0885", "Conservative National Party": "0.0", "Labor Party": "0.0", "Greens Party": "0.0", "Liberal Party": "31418.0", "United Australia Party": "2846"}, {"": "82", "Division Name": "Kennedy", "Latitude": "-17.894750000000002", "Longitude": "145.8075", "Conservative National Party": "2063.0", "Labor Party": "0.0", "Greens Party": "3909.0", "Liberal Party": "0.0", "United Australia Party": "5259"}, {"": "83", "Division Name": "Kingsford Smith", "Latitude": "-33.924299500000004", "Longitude": "151.2343668", "Conservative National Party": "0.0", "Labor Party": "37557.0", "Greens Party": "9331.0", "Liberal Party": "29558.0", "United Australia Party": "1392"}, {"": "84", "Division Name": "Kingston", "Latitude": "-35.10601", "Longitude": "138.531", "Conservative National Party": "0.0", "Labor Party": "0.0", "Greens Party": "7712.0", "Liberal Party": "26481.0", "United Australia Party": "4144"}, {"": "85", "Division Name": "Kooyong", "Latitude": "-37.8189", "Longitude": "145.058", "Conservative National Party": "0.0", "Labor Party": "0.0", "Greens Party": "0.0", "Liberal Party": "35305.0", "United Australia Party": "736"}, {"": "86", "Division Name": "La Trobe", "Latitude": "-38.05", "Longitude": "145.3727889", "Conservative National Party": "0.0", "Labor Party": "0.0", "Greens Party": "0.0", "Liberal Party": "35090.0", "United Australia Party": "1889"}, {"": "87", "Division Name": "Lalor", "Latitude": "-37.885805000000005", "Longitude": "144.6769435", "Conservative National Party": "0.0", "Labor Party": "0.0", "Greens Party": "0.0", "Liberal Party": "23018.0", "United Australia Party": "3527"}, {"": "88", "Division Name": "Leichhardt", "Latitude": "-16.80936775", "Longitude": "145.6894631", "Conservative National Party": "1603.0", "Labor Party": "0.0", "Greens Party": "7794.0", "Liberal Party": "0.0", "United Australia Party": "3066"}, {"": "89", "Division Name": "Lilley", "Latitude": "-27.3888", "Longitude": "153.034873", "Conservative National Party": "922.0", "Labor Party": "0.0", "Greens Party": "11009.0", "Liberal Party": "0.0", "United Australia Party": "1642"}, {"": "90", "Division Name": "Lindsay", "Latitude": "-33.75631725", "Longitude": "150.71", "Conservative National Party": "1968.0", "Labor Party": "30292.0", "Greens Party": "3960.0", "Liberal Party": "39391.0", "United Australia Party": "2364"}, {"": "91", "Division Name": "Lingiari", "Latitude": "-12.64885", "Longitude": "131.078215", "Conservative National Party": "0.0", "Labor Party": "0.0", "Greens Party": "2624.0", "Liberal Party": "0.0", "United Australia Party": "849"}, {"": "92", "Division Name": "Longman", "Latitude": "-27.113149999999997", "Longitude": "152.96680965000002", "Conservative National Party": "1662.0", "Labor Party": "0.0", "Greens Party": "5399.0", "Liberal Party": "0.0", "United Australia Party": "2645"}, {"": "93", "Division Name": "Lyne", "Latitude": "-31.936821000000002", "Longitude": "152.4610005", "Conservative National Party": "1661.0", "Labor Party": "21272.0", "Greens Party": "5461.0", "Liberal Party": "0.0", "United Australia Party": "3482"}, {"": "94", "Division Name": "Lyons", "Latitude": "-42.3417029", "Longitude": "147.23375585", "Conservative National Party": "0.0", "Labor Party": "0.0", "Greens Party": "5501.0", "Liberal Party": "13725.0", "United Australia Party": "3561"}, {"": "95", "Division Name": "Macarthur", "Latitude": "-34.048", "Longitude": "150.8149677", "Conservative National Party": "0.0", "Labor Party": "42462.0", "Greens Party": "3617.0", "Liberal Party": "26571.0", "United Australia Party": "2179"}, {"": "96", "Division Name": "Mackellar", "Latitude": "-33.72789575", "Longitude": "151.2907469", "Conservative National Party": "0.0", "Labor Party": "14063.0", "Greens Party": "9287.0", "Liberal Party": "44255.0", "United Australia Party": "1911"}, {"": "97", "Division Name": "Macnamara", "Latitude": "-37.84979625", "Longitude": "144.98201039999998", "Conservative National Party": "0.0", "Labor Party": "0.0", "Greens Party": "0.0", "Liberal Party": "23942.0", "United Australia Party": "733"}, {"": "98", "Division Name": "Macquarie", "Latitude": "-33.6447", "Longitude": "150.664", "Conservative National Party": "0.0", "Labor Party": "32917.0", "Greens Party": "7518.0", "Liberal Party": "38159.0", "United Australia Party": "3286"}, {"": "99", "Division Name": "Makin", "Latitude": "-34.811", "Longitude": "138.67", "Conservative National Party": "0.0", "Labor Party": "0.0", "Greens Party": "7521.0", "Liberal Party": "28995.0", "United Australia Party": "5494"}, {"": "100", "Division Name": "Mallee", "Latitude": "-36.0189", "Longitude": "142.79726225000002", "Conservative National Party": "1114.0", "Labor Party": "0.0", "Greens Party": "0.0", "Liberal Party": "13767.0", "United Australia Party": "2522"}, {"": "101", "Division Name": "Maranoa", "Latitude": "-27.182832", "Longitude": "151.1682496", "Conservative National Party": "1589.0", "Labor Party": "0.0", "Greens Party": "2383.0", "Liberal Party": "0.0", "United Australia Party": "2609"}, {"": "102", "Division Name": "Maribyrnong", "Latitude": "-37.76495", "Longitude": "144.902735", "Conservative National Party": "0.0", "Labor Party": "0.0", "Greens Party": "0.0", "Liberal Party": "27263.0", "United Australia Party": "2609"}, {"": "103", "Division Name": "Mayo", "Latitude": "-35.0665", "Longitude": "138.72805", "Conservative National Party": "0.0", "Labor Party": "0.0", "Greens Party": "8487.0", "Liberal Party": "34657.0", "United Australia Party": "2797"}, {"": "104", "Division Name": "McEwen", "Latitude": "-37.5642", "Longitude": "144.979515", "Conservative National Party": "0.0", "Labor Party": "0.0", "Greens Party": "0.0", "Liberal Party": "23996.0", "United Australia Party": "2062"}, {"": "105", "Division Name": "McMahon", "Latitude": "-33.8409", "Longitude": "150.9418413", "Conservative National Party": "0.0", "Labor Party": "32560.0", "Greens Party": "3197.0", "Liberal Party": "22842.0", "United Australia Party": "2530"}, {"": "106", "Division Name": "McPherson", "Latitude": "-28.0887793", "Longitude": "153.4215", "Conservative National Party": "652.0", "Labor Party": "0.0", "Greens Party": "8314.0", "Liberal Party": "0.0", "United Australia Party": "2471"}, {"": "107", "Division Name": "Melbourne", "Latitude": "-37.8005296", "Longitude": "144.9749601", "Conservative National Party": "0.0", "Labor Party": "0.0", "Greens Party": "0.0", "Liberal Party": "13491.0", "United Australia Party": "658"}, {"": "108", "Division Name": "Menzies", "Latitude": "-37.768699999999995", "Longitude": "145.15699999999998", "Conservative National Party": "0.0", "Labor Party": "0.0", "Greens Party": "0.0", "Liberal Party": "37796.0", "United Australia Party": "1917"}, {"": "109", "Division Name": "Mitchell", "Latitude": "-33.746395", "Longitude": "150.98383669999998", "Conservative National Party": "0.0", "Labor Party": "19860.0", "Greens Party": "6438.0", "Liberal Party": "50755.0", "United Australia Party": "2173"}, {"": "110", "Division Name": "Monash", "Latitude": "-38.2604", "Longitude": "145.89121725", "Conservative National Party": "0.0", "Labor Party": "0.0", "Greens Party": "0.0", "Liberal Party": "39163.0", "United Australia Party": "3372"}, {"": "111", "Division Name": "Moncrieff", "Latitude": "-28.00847525", "Longitude": "153.40232759999998", "Conservative National Party": "917.0", "Labor Party": "0.0", "Greens Party": "7083.0", "Liberal Party": "0.0", "United Australia Party": "2743"}, {"": "112", "Division Name": "Moore", "Latitude": "-31.7842", "Longitude": "115.7602998", "Conservative National Party": "0.0", "Labor Party": "0.0", "Greens Party": "0.0", "Liberal Party": "37536.0", "United Australia Party": "1234"}, {"": "113", "Division Name": "Moreton", "Latitude": "-27.5380321", "Longitude": "153.0313852", "Conservative National Party": "1185.0", "Labor Party": "0.0", "Greens Party": "11830.0", "Liberal Party": "0.0", "United Australia Party": "1485"}, {"": "114", "Division Name": "New England", "Latitude": "-30.88671", "Longitude": "151.113421", "Conservative National Party": "0.0", "Labor Party": "10799.0", "Greens Party": "3596.0", "Liberal Party": "0.0", "United Australia Party": "3927"}, {"": "115", "Division Name": "Newcastle", "Latitude": "-32.91906444999999", "Longitude": "151.72", "Conservative National Party": "0.0", "Labor Party": "40928.0", "Greens Party": "13947.0", "Liberal Party": "25870.0", "United Australia Party": "2944"}, {"": "116", "Division Name": "Nicholls", "Latitude": "-36.35685", "Longitude": "145.274", "Conservative National Party": "0.0", "Labor Party": "0.0", "Greens Party": "0.0", "Liberal Party": "0.0", "United Australia Party": "4446"}, {"": "117", "Division Name": "North Sydney", "Latitude": "-33.82088795", "Longitude": "151.1962403", "Conservative National Party": "0.0", "Labor Party": "19781.0", "Greens Party": "10410.0", "Liberal Party": "39762.0", "United Australia Party": "973"}, {"": "118", "Division Name": "O'Connor", "Latitude": "-33.7047953", "Longitude": "117.8762078", "Conservative National Party": "0.0", "Labor Party": "0.0", "Greens Party": "0.0", "Liberal Party": "29759.0", "United Australia Party": "1315"}, {"": "119", "Division Name": "Oxley", "Latitude": "-27.6083609", "Longitude": "152.935", "Conservative National Party": "1149.0", "Labor Party": "0.0", "Greens Party": "8464.0", "Liberal Party": "0.0", "United Australia Party": "1849"}, {"": "120", "Division Name": "Page", "Latitude": "-29.0754439", "Longitude": "153.194", "Conservative National Party": "0.0", "Labor Party": "24952.0", "Greens Party": "10581.0", "Liberal Party": "0.0", "United Australia Party": "2904"}, {"": "121", "Division Name": "Parkes", "Latitude": "-31.392140750000003", "Longitude": "148.6438005", "Conservative National Party": "0.0", "Labor Party": "19660.0", "Greens Party": "3234.0", "Liberal Party": "0.0", "United Australia Party": "5136"}, {"": "122", "Division Name": "Parramatta", "Latitude": "-33.80955", "Longitude": "151.0048344", "Conservative National Party": "0.0", "Labor Party": "30925.0", "Greens Party": "4715.0", "Liberal Party": "27785.0", "United Australia Party": "1646"}, {"": "123", "Division Name": "Paterson", "Latitude": "-32.759210100000004", "Longitude": "151.64749999999998", "Conservative National Party": "0.0", "Labor Party": "39643.0", "Greens Party": "6373.0", "Liberal Party": "30708.0", "United Australia Party": "3436"}, {"": "124", "Division Name": "Pearce", "Latitude": "-31.67420755", "Longitude": "115.860913", "Conservative National Party": "0.0", "Labor Party": "0.0", "Greens Party": "0.0", "Liberal Party": "31215.0", "United Australia Party": "1677"}, {"": "125", "Division Name": "Perth", "Latitude": "-31.9198", "Longitude": "115.8785319", "Conservative National Party": "0.0", "Labor Party": "0.0", "Greens Party": "0.0", "Liberal Party": "25540.0", "United Australia Party": "1210"}, {"": "126", "Division Name": "Petrie", "Latitude": "-27.2466", "Longitude": "153.03", "Conservative National Party": "1147.0", "Labor Party": "0.0", "Greens Party": "6991.0", "Liberal Party": "0.0", "United Australia Party": "2541"}, {"": "127", "Division Name": "Rankin", "Latitude": "-27.6387094", "Longitude": "153.098", "Conservative National Party": "1247.0", "Labor Party": "0.0", "Greens Party": "6176.0", "Liberal Party": "0.0", "United Australia Party": "2511"}, {"": "128", "Division Name": "Reid", "Latitude": "-33.86392825", "Longitude": "151.1039965", "Conservative National Party": "0.0", "Labor Party": "28510.0", "Greens Party": "5684.0", "Liberal Party": "36720.0", "United Australia Party": "1273"}, {"": "129", "Division Name": "Richmond", "Latitude": "-28.3852827", "Longitude": "153.5329997", "Conservative National Party": "0.0", "Labor Party": "28279.0", "Greens Party": "17670.0", "Liberal Party": "0.0", "United Australia Party": "3384"}, {"": "130", "Division Name": "Riverina", "Latitude": "-34.5108873", "Longitude": "147.7385", "Conservative National Party": "0.0", "Labor Party": "20840.0", "Greens Party": "5312.0", "Liberal Party": "0.0", "United Australia Party": "9676"}, {"": "131", "Division Name": "Robertson", "Latitude": "-33.4508", "Longitude": "151.3431413", "Conservative National Party": "0.0", "Labor Party": "28422.0", "Greens Party": "6234.0", "Liberal Party": "38025.0", "United Australia Party": "2204"}, {"": "132", "Division Name": "Ryan", "Latitude": "-27.4689443", "Longitude": "152.966", "Conservative National Party": "710.0", "Labor Party": "0.0", "Greens Party": "15661.0", "Liberal Party": "0.0", "United Australia Party": "1085"}, {"": "133", "Division Name": "Scullin", "Latitude": "-37.6638", "Longitude": "145.051", "Conservative National Party": "0.0", "Labor Party": "0.0", "Greens Party": "0.0", "Liberal Party": "15583.0", "United Australia Party": "3519"}, {"": "134", "Division Name": "Shortland", "Latitude": "-33.00084255", "Longitude": "151.6607928", "Conservative National Party": "0.0", "Labor Party": "35203.0", "Greens Party": "6956.0", "Liberal Party": "32141.0", "United Australia Party": "3802"}, {"": "135", "Division Name": "Solomon", "Latitude": "-12.429844", "Longitude": "130.882124", "Conservative National Party": "0.0", "Labor Party": "0.0", "Greens Party": "5614.0", "Liberal Party": "0.0", "United Australia Party": "1274"}, {"": "136", "Division Name": "Spence", "Latitude": "-34.71145", "Longitude": "138.671176", "Conservative National Party": "0.0", "Labor Party": "0.0", "Greens Party": "5872.0", "Liberal Party": "21023.0", "United Australia Party": "5706"}, {"": "137", "Division Name": "Stirling", "Latitude": "-31.883585500000002", "Longitude": "115.84071019999999", "Conservative National Party": "0.0", "Labor Party": "0.0", "Greens Party": "0.0", "Liberal Party": "31869.0", "United Australia Party": "1128"}, {"": "138", "Division Name": "Sturt", "Latitude": "-34.905367", "Longitude": "138.645", "Conservative National Party": "0.0", "Labor Party": "0.0", "Greens Party": "9176.0", "Liberal Party": "41925.0", "United Australia Party": "1900"}, {"": "139", "Division Name": "Swan", "Latitude": "-31.979165899999998", "Longitude": "115.9123519", "Conservative National Party": "438.0", "Labor Party": "0.0", "Greens Party": "0.0", "Liberal Party": "28373.0", "United Australia Party": "1126"}, {"": "140", "Division Name": "Sydney", "Latitude": "-33.8847514", "Longitude": "151.204", "Conservative National Party": "0.0", "Labor Party": "37924.0", "Greens Party": "13259.0", "Liberal Party": "19551.0", "United Australia Party": "1046"}, {"": "141", "Division Name": "Tangney", "Latitude": "-32.03990505", "Longitude": "115.85331325", "Conservative National Party": "0.0", "Labor Party": "0.0", "Greens Party": "0.0", "Liberal Party": "35712.0", "United Australia Party": "713"}, {"": "142", "Division Name": "Wannon", "Latitude": "-38.092791500000004", "Longitude": "142.77411999999998", "Conservative National Party": "0.0", "Labor Party": "0.0", "Greens Party": "0.0", "Liberal Party": "44940.0", "United Australia Party": "5285"}, {"": "143", "Division Name": "Warringah", "Latitude": "-33.79524025", "Longitude": "151.253", "Conservative National Party": "212.0", "Labor Party": "4873.0", "Greens Party": "4461.0", "Liberal Party": "30478.0", "United Australia Party": "516"}, {"": "144", "Division Name": "Watson", "Latitude": "-33.9060028", "Longitude": "151.085", "Conservative National Party": "0.0", "Labor Party": "34415.0", "Greens Party": "4603.0", "Liberal Party": "18996.0", "United Australia Party": "2569"}, {"": "145", "Division Name": "Wentworth", "Latitude": "-33.8837", "Longitude": "151.246", "Conservative National Party": "0.0", "Labor Party": "7947.0", "Greens Party": "5281.0", "Liberal Party": "34237.0", "United Australia Party": "470"}, {"": "146", "Division Name": "Werriwa", "Latitude": "-33.93493625", "Longitude": "150.86849999999998", "Conservative National Party": "0.0", "Labor Party": "38351.0", "Greens Party": "3990.0", "Liberal Party": "27550.0", "United Australia Party": "3298"}, {"": "147", "Division Name": "Whitlam", "Latitude": "-34.5190544", "Longitude": "150.801", "Conservative National Party": "0.0", "Labor Party": "44647.0", "Greens Party": "8008.0", "Liberal Party": "0.0", "United Australia Party": "7850"}, {"": "148", "Division Name": "Wide Bay", "Latitude": "-26.1795131", "Longitude": "152.694", "Conservative National Party": "1746.0", "Labor Party": "0.0", "Greens Party": "7435.0", "Liberal Party": "0.0", "United Australia Party": "2723"}, {"": "149", "Division Name": "Wills", "Latitude": "-37.7419", "Longitude": "144.95182", "Conservative National Party": "0.0", "Labor Party": "0.0", "Greens Party": "0.0", "Liberal Party": "12713.0", "United Australia Party": "2417"}, {"": "150", "Division Name": "Wright", "Latitude": "-27.8239", "Longitude": "152.916", "Conservative National Party": "1677.0", "Labor Party": "0.0", "Greens Party": "5010.0", "Liberal Party": "0.0", "United Australia Party": "3384"}]